,City,Country,Date,Lat,Lng,Max Temp,Humidity %,Cloudiness %,Wind Speed (mph),Current Description,Rain inches (last 3 hrs),Snow inches (last 3 hrs)
0,Mataura,NZ,2020-02-20 22:04:12,-46.19,168.86,66.38,74,87,3.87,overcast clouds,0.0,0.0
1,Lat Yao,TH,2020-02-20 22:04:12,15.75,99.79,73.2,49,14,5.32,few clouds,0.0,0.0
2,Port Elizabeth,ZA,2020-02-20 22:00:05,-33.92,25.57,68.0,88,32,13.87,light rain,0.31,0.0
3,Ushuaia,AR,2020-02-20 22:04:12,-54.8,-68.3,53.6,62,90,14.99,light rain,0.0,0.0
4,Ourossogui,SN,2020-02-20 22:04:13,15.61,-13.32,77.0,47,51,7.34,broken clouds,0.0,0.0
5,Little Current,CA,2020-02-20 22:04:13,45.98,-81.92,16.0,51,1,5.82,clear sky,0.0,0.0
6,Yellowknife,CA,2020-02-20 22:00:33,62.46,-114.35,33.01,79,20,11.41,few clouds,0.0,0.0
7,Kavieng,PG,2020-02-20 22:04:13,-2.57,150.8,83.3,75,53,9.22,broken clouds,0.0,0.0
8,Gambo,CF,2020-02-20 22:04:13,4.65,22.26,77.41,41,15,1.57,few clouds,0.0,0.0
9,Upernavik,GL,2020-02-20 22:04:14,72.79,-56.15,-11.58,99,100,4.09,overcast clouds,0.0,0.0
10,Busselton,AU,2020-02-20 22:04:03,-33.65,115.33,68.0,34,70,15.84,broken clouds,0.0,0.0
11,Laguna,US,2020-02-20 22:04:14,38.42,-121.42,69.01,42,1,6.93,clear sky,0.0,0.0
12,Hobart,AU,2020-02-20 21:59:42,-42.88,147.33,55.0,50,75,12.75,light intensity shower rain,0.0,0.0
13,Auki,SB,2020-02-20 22:02:13,-8.77,160.7,83.28,78,100,8.72,moderate rain,4.13,0.0
14,Inhambane,MZ,2020-02-20 22:04:14,-23.86,35.38,80.2,75,3,10.56,clear sky,0.0,0.0
15,Pinotepa Nacional,MX,2020-02-20 22:04:15,16.32,-98.02,95.25,20,0,13.65,clear sky,0.0,0.0
16,Panguna,PG,2020-02-20 22:04:15,-6.32,155.48,72.18,88,88,1.99,light rain,0.13,0.0
17,Geraldton,AU,2020-02-20 22:04:15,-28.77,114.6,73.4,83,99,3.36,overcast clouds,0.0,0.0
18,Victoria,HK,2020-02-20 22:01:08,22.29,114.16,62.6,67,0,8.05,clear sky,0.0,0.0
19,Ingham,US,2020-02-20 22:04:15,42.6,-84.38,24.01,41,40,8.05,scattered clouds,0.0,0.0
20,Longyearbyen,SJ,2020-02-20 22:01:36,78.22,15.64,6.8,60,40,14.99,scattered clouds,0.0,0.0
21,Bredasdorp,ZA,2020-02-20 22:04:16,-34.53,20.04,62.6,82,7,2.24,clear sky,0.0,0.0
22,Marawi,PH,2020-02-20 22:04:16,8.0,124.29,70.0,82,0,7.0,clear sky,0.0,0.0
23,Necochea,AR,2020-02-20 22:04:16,-38.55,-58.74,62.01,72,76,14.0,light rain,0.56,0.0
24,Sao Geraldo Do Araguaia,BR,2020-02-20 22:04:16,-6.4,-48.55,72.57,96,100,5.21,light rain,1.06,0.0
25,Sitka,US,2020-02-20 22:03:22,57.05,-135.33,37.4,86,90,25.28,light rain,0.0,0.0
26,Rikitea,PF,2020-02-20 22:04:17,-23.12,-134.97,78.85,75,40,9.98,scattered clouds,0.0,0.0
27,Houston,US,2020-02-20 21:59:55,29.76,-95.36,50.0,76,90,19.46,light rain,0.0,0.0
28,Puerto Ayora,EC,2020-02-20 22:04:17,-0.74,-90.35,80.6,83,75,9.17,light rain,0.0,0.0
29,Ola,RU,2020-02-20 22:04:17,59.58,151.28,-10.28,76,0,3.91,clear sky,0.0,0.0
30,Mackay,AU,2020-02-20 22:04:18,-21.15,149.2,84.0,83,75,3.36,broken clouds,0.0,0.0
31,Trincomalee,LK,2020-02-20 22:02:28,8.57,81.23,74.62,96,55,4.63,light rain,0.38,0.0
32,Lima,PE,2020-02-20 22:04:11,-12.04,-77.03,80.6,69,100,11.41,overcast clouds,0.0,0.0
33,Horodnytsya,UA,2020-02-20 22:04:18,50.81,27.32,36.77,88,97,2.42,overcast clouds,0.0,0.0
34,Atuona,PF,2020-02-20 22:04:18,-9.8,-139.03,81.59,75,21,18.77,light rain,0.13,0.0
35,Les Cayes,HT,2020-02-20 22:04:18,18.2,-73.75,80.76,71,1,14.58,clear sky,0.0,0.0
36,Esil,KZ,2020-02-20 22:04:19,51.96,66.4,10.6,91,86,7.16,overcast clouds,0.0,0.0
37,Husavik,IS,2020-02-20 22:04:19,66.04,-17.34,30.2,100,90,12.75,light snow,0.0,0.0
38,Arraial Do Cabo,BR,2020-02-20 22:04:19,-22.97,-42.03,82.4,74,0,13.87,clear sky,0.0,0.0
39,Albany,US,2020-02-20 22:04:20,42.6,-73.97,27.0,44,40,14.99,scattered clouds,0.0,0.0
40,Kapaa,US,2020-02-20 22:04:20,22.08,-159.32,78.8,57,75,10.29,broken clouds,0.0,0.0
41,Ziarat,PK,2020-02-20 22:04:20,30.38,67.73,35.4,53,53,9.42,broken clouds,0.0,0.0
42,Chuy,UY,2020-02-20 22:04:20,-33.7,-53.46,68.29,47,6,16.96,clear sky,0.0,0.0
43,Punta Arenas,CL,2020-02-20 22:04:20,-53.15,-70.92,59.0,51,19,12.75,few clouds,0.0,0.0
44,Porto Santo,PT,2020-02-20 22:04:21,33.07,-16.34,57.2,82,40,10.29,scattered clouds,0.0,0.0
45,San Policarpo,PH,2020-02-20 22:04:21,12.18,125.51,77.94,83,91,19.55,moderate rain,3.44,0.0
46,Tirano,IT,2020-02-20 22:04:21,46.22,10.17,37.99,72,0,3.36,clear sky,0.0,0.0
47,Cortes,ES,2020-02-20 22:04:21,41.94,-1.44,50.0,70,2,9.17,clear sky,0.0,0.0
48,Chokurdakh,RU,2020-02-20 22:04:21,70.63,147.92,-14.17,96,93,3.56,overcast clouds,0.0,0.0
49,Olafsvik,IS,2020-02-20 22:04:22,64.89,-23.71,29.16,78,100,33.64,overcast clouds,0.0,0.0
50,Airai,TL,2020-02-20 22:01:48,-8.93,125.41,66.94,91,80,4.59,light rain,0.19,0.0
51,Castro,BR,2020-02-20 22:04:22,-24.79,-50.01,78.89,57,100,2.8,overcast clouds,0.0,0.0
52,Broken Hill,AU,2020-02-20 22:01:21,-31.95,141.43,59.0,58,65,12.75,broken clouds,0.0,0.0
53,Butler,US,2020-02-20 22:01:45,39.45,-84.57,32.0,53,1,12.75,clear sky,0.0,0.0
54,Nelson Bay,AU,2020-02-20 22:02:30,-32.72,152.15,75.0,56,75,9.17,broken clouds,0.0,0.0
55,San Patricio,MX,2020-02-20 22:04:23,19.22,-104.7,84.2,74,20,11.41,few clouds,0.0,0.0
56,Esperance,AU,2020-02-20 22:04:23,-33.87,121.9,55.4,87,0,8.05,clear sky,0.0,0.0
57,Khatanga,RU,2020-02-20 22:04:23,71.97,102.5,2.32,88,95,7.81,overcast clouds,0.0,0.0
58,Winder,US,2020-02-20 22:03:05,33.99,-83.72,41.0,93,90,5.82,moderate rain,0.0,0.0
59,Westport,US,2020-02-20 22:04:24,41.14,-73.36,37.0,34,1,8.05,clear sky,0.0,0.0
60,Ust-Ordynskiy,RU,2020-02-20 22:04:24,52.8,104.75,3.2,84,94,2.24,overcast clouds,0.0,0.0
61,Bluff,NZ,2020-02-20 22:04:24,-46.6,168.33,66.81,61,43,7.92,scattered clouds,0.0,0.0
62,Hilo,US,2020-02-20 22:00:45,19.73,-155.09,78.8,54,75,5.82,broken clouds,0.0,0.0
63,Bengkulu,ID,2020-02-20 22:01:04,-3.8,102.27,72.91,90,86,4.21,overcast clouds,0.0,0.0
64,Tuatapere,NZ,2020-02-20 22:04:25,-46.13,167.68,61.77,94,76,2.28,light rain,0.25,0.0
65,Koregaon,IN,2020-02-20 22:04:25,18.65,74.08,70.7,45,0,4.7,clear sky,0.0,0.0
66,Bethel,US,2020-02-20 22:04:25,41.37,-73.41,36.0,29,20,8.05,few clouds,0.0,0.0
67,Det Udom,TH,2020-02-20 22:04:25,14.91,105.08,68.0,77,9,4.7,clear sky,0.0,0.0
68,Ponta Do Sol,PT,2020-02-20 22:03:39,32.67,-17.1,57.2,71,40,8.05,scattered clouds,0.0,0.0
69,San Andres,CO,2020-02-20 22:04:26,12.58,-81.7,86.0,66,20,12.75,few clouds,0.0,0.0
70,Chaihe,CN,2020-02-20 22:04:26,44.77,129.7,12.13,90,100,1.95,overcast clouds,0.0,0.0
71,East London,ZA,2020-02-20 22:04:26,-33.02,27.91,75.92,78,70,14.72,light rain,0.31,0.0
72,Jamestown,US,2020-02-20 22:00:39,42.1,-79.24,23.0,61,90,10.29,light snow,0.0,0.0
73,Ribeira Grande,PT,2020-02-20 22:04:26,38.52,-28.7,57.2,62,40,6.93,scattered clouds,0.0,0.0
74,Wawa,NG,2020-02-20 22:04:26,9.9,4.42,84.4,24,0,7.72,clear sky,0.0,0.0
75,Poya,NC,2020-02-20 22:04:27,-21.35,165.15,78.44,76,0,5.7,clear sky,0.0,0.0
76,Hamilton,US,2020-02-20 22:04:27,39.18,-84.53,32.0,42,75,9.17,broken clouds,0.0,0.0
77,Pangnirtung,CA,2020-02-20 22:04:27,66.15,-65.71,-32.8,66,5,2.24,clear sky,0.0,0.0
78,Mar Del Plata,AR,2020-02-20 22:03:41,-38.0,-57.56,64.0,67,40,14.99,light rain,0.0,0.0
79,Bathsheba,BB,2020-02-20 22:04:27,13.22,-59.52,80.6,61,20,19.46,few clouds,0.0,0.0
80,Tucumcari,US,2020-02-20 22:03:43,35.17,-103.72,37.99,47,90,8.05,overcast clouds,0.0,0.0
81,Namibe,AO,2020-02-20 22:04:28,-15.2,12.15,75.43,75,99,17.38,overcast clouds,0.0,0.0
82,Salta,AR,2020-02-20 22:01:45,-24.79,-65.41,78.8,78,75,11.41,broken clouds,0.0,0.0
83,San-Pedro,CI,2020-02-20 22:04:28,4.75,-6.64,82.71,84,58,9.01,broken clouds,0.0,0.0
84,Kahului,US,2020-02-20 22:04:28,20.89,-156.47,78.8,44,20,23.04,few clouds,0.0,0.0
85,Jumla,NP,2020-02-20 22:04:29,29.27,82.18,31.64,60,60,4.76,broken clouds,0.0,0.0
86,Hermanus,ZA,2020-02-20 22:04:29,-34.42,19.23,64.99,94,0,1.99,clear sky,0.0,0.0
87,Guerrero Negro,MX,2020-02-20 22:04:29,27.98,-114.06,73.98,40,27,8.84,scattered clouds,0.0,0.0
88,Freeport,US,2020-02-20 22:04:30,40.66,-73.58,36.0,37,1,11.41,clear sky,0.0,0.0
89,Alofi,NU,2020-02-20 22:04:30,-19.06,-169.92,82.4,88,75,20.8,broken clouds,0.0,0.0
90,Pelym,RU,2020-02-20 22:04:30,61.01,62.0,23.41,93,98,5.23,overcast clouds,0.0,0.0
91,Ellisras,ZA,2020-02-20 22:04:30,-23.66,27.74,78.71,47,0,6.55,clear sky,0.0,0.0
92,Dikson,RU,2020-02-20 22:01:09,73.51,80.55,-2.0,94,3,14.27,clear sky,0.0,0.0
93,Bennington,US,2020-02-20 22:04:31,42.88,-73.2,27.0,49,75,8.05,broken clouds,0.0,0.0
94,Balashov,RU,2020-02-20 22:04:31,51.55,43.17,34.0,93,100,1.01,overcast clouds,0.0,0.0
95,Bilma,NE,2020-02-20 22:01:05,18.69,12.92,66.87,20,25,7.74,scattered clouds,0.0,0.0
96,Lavrentiya,RU,2020-02-20 22:01:12,65.58,-171.0,-14.51,88,0,8.5,clear sky,0.0,0.0
97,Kuzhithurai,IN,2020-02-20 22:04:32,8.32,77.18,78.8,88,20,3.36,haze,0.0,0.0
98,Grantham,GB,2020-02-20 22:04:32,52.91,-0.64,41.0,69,0,18.34,clear sky,0.0,0.0
99,Iranshahr,IR,2020-02-20 22:04:32,27.2,60.68,62.6,42,99,6.93,overcast clouds,0.0,0.0
100,San Carlos De Bariloche,AR,2020-02-20 22:02:14,-41.15,-71.31,73.4,8,0,12.75,clear sky,0.0,0.0
101,Saint-Philippe,RE,2020-02-20 22:04:33,-21.36,55.77,77.0,73,90,8.05,overcast clouds,0.0,0.0
102,Praia,CV,2020-02-20 22:04:33,14.92,-23.51,67.98,84,46,14.52,scattered clouds,0.0,0.0
103,Mabai,CN,2020-02-20 22:04:33,23.01,104.45,52.41,96,100,1.52,overcast clouds,0.0,0.0
104,Bambous Virieux,MU,2020-02-20 22:03:49,-20.34,57.76,78.8,69,40,10.29,scattered clouds,0.0,0.0
105,Mangrol,IN,2020-02-20 22:04:14,21.12,70.12,76.68,69,0,9.82,clear sky,0.0,0.0
106,Ancud,CL,2020-02-20 22:04:34,-41.87,-73.82,69.8,37,0,10.29,clear sky,0.0,0.0
107,Ponta Delgada,PT,2020-02-20 22:04:31,37.73,-25.67,53.6,66,40,8.05,scattered clouds,0.0,0.0
108,Thompson,CA,2020-02-20 22:01:19,55.74,-97.86,28.4,54,75,14.99,broken clouds,0.0,0.0
109,Saint-Joseph,RE,2020-02-20 22:01:00,-21.37,55.62,77.0,73,90,8.05,overcast clouds,0.0,0.0
110,Souillac,MU,2020-02-20 22:04:35,-20.52,57.52,78.8,69,40,10.29,scattered clouds,0.0,0.0
111,Kutum,SD,2020-02-20 22:04:35,14.2,24.67,61.21,29,0,6.87,clear sky,0.0,0.0
112,New Norfolk,AU,2020-02-20 22:04:35,-42.78,147.06,55.0,50,75,12.75,light intensity shower rain,0.0,0.0
113,Saskylakh,RU,2020-02-20 22:01:35,71.92,114.08,-18.9,99,90,3.42,overcast clouds,0.0,0.0
114,Naze,JP,2020-02-20 22:00:50,28.37,129.48,62.6,63,40,13.87,scattered clouds,0.0,0.0
115,College,US,2020-02-20 22:04:36,64.86,-147.8,32.0,73,90,9.17,overcast clouds,0.0,0.0
116,Luderitz,NA,2020-02-20 22:04:36,-26.65,15.16,71.6,73,0,17.22,clear sky,0.0,0.0
117,Avarua,CK,2020-02-20 22:03:50,-21.21,-159.78,82.4,88,100,6.93,light rain,1.63,0.0
118,Torbay,CA,2020-02-20 22:01:07,47.67,-52.73,18.0,61,75,31.09,broken clouds,0.0,0.0
119,Kintampo,GH,2020-02-20 22:03:04,8.06,-1.73,86.36,28,100,1.88,overcast clouds,0.0,0.0
120,Maniitsoq,GL,2020-02-20 22:04:37,65.42,-52.9,12.61,46,54,0.22,broken clouds,0.0,0.0
121,Tarko-Sale,RU,2020-02-20 22:04:37,64.92,77.78,32.0,94,98,8.21,light snow,0.0,0.31
122,Benghazi,LY,2020-02-20 22:04:01,32.12,20.07,60.15,65,100,17.31,light rain,0.13,0.0
123,Alihe,CN,2020-02-20 22:04:38,50.57,123.72,0.43,95,100,1.86,overcast clouds,0.0,0.0
124,Adrar,MR,2020-02-20 22:04:20,20.5,-10.07,75.96,10,0,11.21,clear sky,0.0,0.0
125,Nome,US,2020-02-20 22:04:38,64.5,-165.41,8.6,65,90,10.25,overcast clouds,0.0,0.0
126,Wanning,CN,2020-02-20 22:04:39,18.8,110.4,67.66,88,1,7.87,light rain,0.19,0.0
127,Qaanaaq,GL,2020-02-20 22:04:39,77.48,-69.36,-14.3,59,0,5.59,clear sky,0.0,0.0
128,Sandnessjoen,NO,2020-02-20 22:04:39,66.02,12.63,37.4,81,90,4.7,light shower snow,0.0,0.0
129,Buchanan,LR,2020-02-20 22:04:39,5.88,-10.05,80.6,94,40,3.36,mist,0.0,0.0
130,Waingapu,ID,2020-02-20 22:04:39,-9.66,120.26,82.9,75,100,15.43,overcast clouds,0.0,0.0
131,Palauig,PH,2020-02-20 22:04:40,15.44,119.9,67.46,56,0,6.85,clear sky,0.0,0.0
132,Coquimbo,CL,2020-02-20 22:02:40,-29.95,-71.34,64.4,77,75,11.41,broken clouds,0.0,0.0
133,Los Llanos De Aridane,ES,2020-02-20 22:04:40,28.66,-17.92,64.4,63,75,14.99,broken clouds,0.0,0.0
134,Georgetown,MY,2020-02-20 22:00:40,5.41,100.34,80.6,65,20,6.93,few clouds,0.0,0.0
135,Tuktoyaktuk,CA,2020-02-20 22:01:29,69.45,-133.04,-0.4,77,90,10.29,light snow,0.0,0.0
136,Tuy Hoa,VN,2020-02-20 22:04:40,13.08,109.3,75.11,80,55,23.71,light rain,1.06,0.0
137,Ushtobe,KZ,2020-02-20 22:04:41,45.25,77.98,29.91,66,34,1.83,scattered clouds,0.0,0.0
138,Manuk Mangkaw,PH,2020-02-20 22:04:41,4.8,119.85,80.15,76,2,9.44,clear sky,0.0,0.0
139,Malkangiri,IN,2020-02-20 22:04:41,18.35,81.9,68.88,70,0,1.05,clear sky,0.0,0.0
140,Port Alfred,ZA,2020-02-20 22:04:41,-33.59,26.89,69.01,92,77,1.01,light rain,0.19,0.0
141,Burley,US,2020-02-20 22:02:00,42.54,-113.79,37.4,40,1,12.75,clear sky,0.0,0.0
142,Nueva Concepcion,GT,2020-02-20 22:04:42,14.2,-91.3,93.2,46,40,13.87,scattered clouds,0.0,0.0
143,Tabora,TZ,2020-02-20 22:04:42,-5.02,32.8,75.2,73,40,2.73,scattered clouds,0.0,0.0
144,Ust-Nera,RU,2020-02-20 22:04:42,64.57,143.2,-35.93,100,100,2.68,overcast clouds,0.0,0.0
145,Tessalit,ML,2020-02-20 22:04:13,20.2,1.01,73.29,11,79,12.24,broken clouds,0.0,0.0
146,Dingle,PH,2020-02-20 22:04:42,11.0,122.67,71.35,93,69,13.8,light rain,0.88,0.0
147,Nikolskoye,RU,2020-02-20 22:01:13,59.7,30.79,33.01,95,75,4.47,broken clouds,0.0,0.0
148,Atar,MR,2020-02-20 22:04:43,20.52,-13.05,73.51,12,0,7.07,clear sky,0.0,0.0
149,Butaritari,KI,2020-02-20 22:01:04,3.07,172.79,83.17,80,100,13.94,light rain,0.25,0.0
150,Richards Bay,ZA,2020-02-20 22:04:43,-28.78,32.04,78.76,86,100,4.16,overcast clouds,0.0,0.0
151,Barrow,US,2020-02-20 22:04:43,71.29,-156.79,-5.8,76,90,9.17,mist,0.0,0.0
152,Qaqortoq,GL,2020-02-20 22:04:43,60.72,-46.03,30.2,28,100,17.22,overcast clouds,0.0,0.0
153,Turayf,SA,2020-02-20 22:04:44,31.67,38.66,46.4,93,0,6.93,clear sky,0.0,0.0
154,Eslov,SE,2020-02-20 22:04:44,55.84,13.3,43.0,93,90,20.8,overcast clouds,0.0,0.0
155,Abonnema,NG,2020-02-20 22:04:44,4.71,6.79,89.6,66,50,4.7,scattered clouds,0.0,0.0
156,Chapais,CA,2020-02-20 22:04:44,49.78,-74.85,1.4,59,40,13.87,scattered clouds,0.0,0.0
157,Lamu,KE,2020-02-20 22:04:44,-2.27,40.9,81.27,83,100,15.03,overcast clouds,0.0,0.0
158,Hasaki,JP,2020-02-20 22:04:45,35.73,140.83,42.8,81,75,4.7,broken clouds,0.0,0.0
159,Cap-Haitien,HT,2020-02-20 22:04:45,19.76,-72.2,79.29,77,0,24.74,clear sky,0.0,0.0
160,Fereydunshahr,IR,2020-02-20 22:04:45,32.94,50.12,17.56,94,73,7.43,broken clouds,0.0,0.0
161,Tasiilaq,GL,2020-02-20 22:04:45,65.61,-37.64,23.0,73,100,8.05,light snow,0.0,0.56
162,Cayenne,GF,2020-02-20 22:04:45,4.93,-52.33,80.6,69,36,5.82,scattered clouds,0.0,0.0
163,Kutahya,TR,2020-02-20 22:04:46,39.42,29.98,41.0,86,75,6.93,light rain,0.0,0.0
164,Henties Bay,NA,2020-02-20 22:04:46,-22.12,14.28,66.0,91,78,5.86,broken clouds,0.0,0.0
165,Beringovskiy,RU,2020-02-20 22:04:46,63.05,179.32,-16.29,88,0,7.83,clear sky,0.0,0.0
166,Akureyri,IS,2020-02-20 22:00:56,65.68,-18.09,30.2,100,90,12.75,light snow,0.0,0.0
167,San Ignacio,BZ,2020-02-20 22:04:46,17.16,-89.07,93.2,49,40,6.93,scattered clouds,0.0,0.0
168,Horki,BY,2020-02-20 22:04:47,54.29,30.98,34.5,92,39,5.37,scattered clouds,0.0,0.0
169,Suntar,RU,2020-02-20 22:04:47,62.14,117.63,12.07,96,100,4.41,light snow,0.0,0.5
170,Batu,ID,2020-02-20 22:04:47,-7.87,112.53,66.69,82,100,2.3,overcast clouds,0.0,0.0
171,Ahwa,IN,2020-02-20 22:04:47,20.75,73.68,64.76,53,0,1.07,clear sky,0.0,0.0
172,Ashland,US,2020-02-20 22:02:20,40.82,-82.27,26.6,49,40,9.17,scattered clouds,0.0,0.0
173,Faanui,PF,2020-02-20 22:01:25,-16.48,-151.75,82.69,78,100,18.72,light rain,0.63,0.0
174,Fowa,NG,2020-02-20 22:04:48,8.92,6.4,85.77,16,0,3.15,clear sky,0.0,0.0
175,Mutoko,ZW,2020-02-20 22:04:48,-17.4,32.23,67.26,93,51,3.22,light rain,0.56,0.0
176,Ishigaki,JP,2020-02-20 22:04:48,24.34,124.16,68.0,68,40,13.87,scattered clouds,0.0,0.0
177,Andenes,NO,2020-02-20 22:00:22,69.31,16.12,33.8,64,75,24.16,broken clouds,0.0,0.0
178,Huarmey,PE,2020-02-20 22:04:49,-10.07,-78.15,82.08,53,100,10.98,overcast clouds,0.0,0.0
179,Severo-Kurilsk,RU,2020-02-20 22:04:49,50.68,156.12,16.77,91,99,17.2,light snow,0.0,1.38
180,Portree,GB,2020-02-20 22:04:50,57.41,-6.19,43.0,85,73,11.01,light rain,0.5,0.0
181,Talnakh,RU,2020-02-20 22:02:25,69.49,88.4,15.8,85,90,4.47,fog,0.0,0.0
182,Nabire,ID,2020-02-20 22:00:41,-3.37,135.48,70.65,97,81,2.26,broken clouds,0.0,0.0
183,Oskarshamn,SE,2020-02-20 22:04:50,57.26,16.45,42.8,93,75,16.11,light rain,0.0,0.0
184,San Juan,AR,2020-02-20 22:03:11,-31.54,-68.54,84.6,19,14,18.9,few clouds,0.0,0.0
185,Taltal,CL,2020-02-20 22:01:58,-25.4,-70.48,66.85,72,6,6.08,clear sky,0.0,0.0
186,Chapleau,CA,2020-02-20 22:04:51,47.84,-83.4,15.8,61,75,13.87,broken clouds,0.0,0.0
187,Kirakira,SB,2020-02-20 22:04:51,-10.45,161.92,80.11,83,65,4.0,broken clouds,0.0,0.0
188,Yulara,AU,2020-02-20 22:04:51,-25.24,130.99,73.4,23,0,6.93,clear sky,0.0,0.0
189,Bardiyah,LY,2020-02-20 22:04:51,31.76,25.09,59.25,75,97,15.95,light rain,0.13,0.0
190,Buala,SB,2020-02-20 22:04:51,-8.14,159.59,81.09,80,100,8.52,overcast clouds,0.0,0.0
191,Tocopilla,CL,2020-02-20 22:04:52,-22.09,-70.2,71.91,32,17,11.63,few clouds,0.0,0.0
192,Samarai,PG,2020-02-20 21:59:40,-10.62,150.67,78.1,86,95,3.89,overcast clouds,0.0,0.0
193,Chabahar,IR,2020-02-20 22:04:52,25.29,60.64,68.86,67,75,0.98,broken clouds,0.0,0.0
194,Paungde,MM,2020-02-20 22:04:52,18.48,95.5,65.93,32,0,6.4,clear sky,0.0,0.0
195,Cape Town,ZA,2020-02-20 22:04:10,-33.93,18.42,68.0,77,0,17.22,clear sky,0.0,0.0
196,Humen,CN,2020-02-20 22:04:53,22.82,113.67,62.6,67,0,8.05,clear sky,0.0,0.0
197,Kasulu,TZ,2020-02-20 22:04:53,-4.58,30.1,71.6,94,20,0.45,few clouds,0.0,0.0
198,Usinsk,RU,2020-02-20 22:04:53,65.99,57.53,9.25,92,47,10.04,scattered clouds,0.0,0.0
199,Carnarvon,AU,2020-02-20 22:04:53,-24.87,113.63,78.8,74,100,11.41,light rain,0.5,0.0
200,Kaitangata,NZ,2020-02-20 22:04:53,-46.28,169.85,64.99,80,100,1.99,overcast clouds,0.0,0.0
201,Seoul,KR,2020-02-20 22:04:54,37.57,126.98,33.8,100,75,1.12,fog,0.0,0.0
202,Mahebourg,MU,2020-02-20 22:04:54,-20.41,57.7,78.8,69,40,10.29,scattered clouds,0.0,0.0
203,Jibuti,DJ,2020-02-20 22:04:54,11.5,42.5,77.0,73,1,8.37,clear sky,0.0,0.0
204,Lianzhou,CN,2020-02-20 22:04:54,24.78,112.38,56.7,80,100,0.78,overcast clouds,0.0,0.0
205,Katsuura,JP,2020-02-20 22:04:54,35.13,140.3,46.4,65,40,10.29,scattered clouds,0.0,0.0
206,Norman Wells,CA,2020-02-20 22:00:46,65.28,-126.83,17.6,92,20,4.7,few clouds,0.0,0.0
207,Bubaque,GW,2020-02-20 22:04:55,11.28,-15.83,79.54,70,43,14.72,scattered clouds,0.0,0.0
208,Aguadilla,PR,2020-02-20 22:04:55,18.43,-67.15,82.0,66,1,18.34,clear sky,0.0,0.0
209,West Point,US,2020-02-20 22:04:55,33.61,-88.65,41.0,56,90,12.75,overcast clouds,0.0,0.0
210,Tabou,CI,2020-02-20 22:04:56,4.42,-7.35,78.19,89,40,2.21,scattered clouds,0.0,0.0
211,Herzberg,DE,2020-02-20 22:04:56,51.69,13.22,46.4,65,75,12.75,broken clouds,0.0,0.0
212,Flagstaff,US,2020-02-20 22:04:56,35.2,-111.65,70.0,17,1,6.93,clear sky,0.0,0.0
213,Rumoi,JP,2020-02-20 22:04:56,43.93,141.64,29.26,62,100,22.44,light snow,0.0,0.19
214,Whitley Bay,GB,2020-02-20 22:04:56,55.04,-1.45,41.0,80,40,21.92,shower rain,0.0,0.0
215,Askiz,RU,2020-02-20 22:04:57,53.13,90.53,23.43,80,100,8.66,overcast clouds,0.0,0.0
216,Tiksi,RU,2020-02-20 21:59:42,71.69,128.87,-1.3,86,100,11.61,overcast clouds,0.0,0.0
217,Loandjili,CG,2020-02-20 22:04:57,-4.76,11.86,84.2,83,40,6.93,scattered clouds,0.0,0.0
218,Sur,OM,2020-02-20 22:02:11,22.57,59.53,70.59,46,87,12.21,overcast clouds,0.0,0.0
219,Vaini,TO,2020-02-20 22:04:58,-21.2,-175.2,80.6,69,20,5.82,few clouds,0.0,0.0
220,Vanimo,PG,2020-02-20 22:04:58,-2.67,141.3,81.16,82,92,16.26,light rain,1.81,0.0
221,Maltahohe,NA,2020-02-20 22:04:58,-24.83,16.98,76.8,47,77,7.23,broken clouds,0.0,0.0
222,Pevek,RU,2020-02-20 22:04:58,69.7,170.31,-8.75,99,100,6.67,light snow,0.0,0.31
223,Itanhem,BR,2020-02-20 22:04:58,-17.17,-40.33,76.66,79,9,3.67,light rain,2.38,0.0
224,Uyuni,BO,2020-02-20 22:04:59,-20.46,-66.83,53.94,61,100,20.58,light rain,1.63,0.0
225,Changji,CN,2020-02-20 22:04:59,44.02,87.32,15.8,85,0,6.71,clear sky,0.0,0.0
226,Oranjemund,NA,2020-02-20 22:04:59,-28.55,16.43,63.52,89,26,14.07,scattered clouds,0.0,0.0
227,Zhireken,RU,2020-02-20 22:04:59,52.82,117.31,1.0,85,100,2.26,overcast clouds,0.0,0.0
228,Coutances,FR,2020-02-20 22:04:59,49.05,-1.43,46.99,73,20,14.99,few clouds,0.0,0.0
229,Grinnell,US,2020-02-20 22:05:00,41.74,-92.72,24.8,52,1,5.82,clear sky,0.0,0.0
230,Isangel,VU,2020-02-20 22:05:00,-19.55,169.27,82.4,78,20,5.82,few clouds,0.0,0.0
231,Saint George,US,2020-02-20 22:03:29,37.1,-113.58,57.99,15,1,5.82,clear sky,0.0,0.0
232,Mount Isa,AU,2020-02-20 22:01:16,-20.73,139.5,78.8,22,0,5.82,clear sky,0.0,0.0
233,Vardo,NO,2020-02-20 22:00:36,70.37,31.11,23.0,67,75,21.92,broken clouds,0.0,0.0
234,Hithadhoo,MV,2020-02-20 22:00:42,-0.6,73.08,83.55,76,0,12.48,clear sky,0.0,0.0
235,Connersville,US,2020-02-20 22:05:01,39.64,-85.14,30.99,49,40,12.75,scattered clouds,0.0,0.0
236,Lagoa,PT,2020-02-20 22:05:01,39.05,-27.98,56.82,61,67,8.55,broken clouds,0.0,0.0
237,Mugur-Aksy,RU,2020-02-20 22:05:01,50.35,90.5,-0.62,84,93,6.87,overcast clouds,0.0,0.0
238,Hailar,CN,2020-02-20 22:05:01,49.2,119.7,13.68,92,100,8.05,light snow,0.0,0.5
239,San Jeronimo,PE,2020-02-20 22:05:01,-11.95,-75.28,52.5,69,100,15.28,moderate rain,4.25,0.0
240,Conway,US,2020-02-20 22:05:02,35.09,-92.44,48.2,45,40,13.87,scattered clouds,0.0,0.0
241,Nayoro,JP,2020-02-20 22:05:02,44.35,142.46,15.01,97,100,4.54,light snow,0.0,0.5
242,Grindavik,IS,2020-02-20 22:05:02,63.84,-22.43,33.8,74,75,11.41,broken clouds,0.0,0.0
243,Kodiak,US,2020-02-20 22:05:02,57.79,-152.41,37.4,86,90,4.7,overcast clouds,0.0,0.0
244,Danielskuil,ZA,2020-02-20 22:05:02,-28.19,23.54,66.67,74,14,3.51,few clouds,0.0,0.0
245,Kerrville,US,2020-02-20 22:00:55,30.05,-99.14,48.0,81,90,16.11,overcast clouds,0.0,0.0
246,Sydney,AU,2020-02-20 22:04:53,-33.87,151.21,73.0,77,75,8.05,broken clouds,0.0,0.0
247,Rio Grande,BR,2020-02-20 22:05:03,-32.03,-52.1,71.6,60,75,16.11,broken clouds,0.0,0.0
248,Luau,AO,2020-02-20 22:05:03,-10.71,22.22,70.09,89,88,2.35,overcast clouds,0.0,0.0
249,Devils Lake,US,2020-02-20 22:02:29,48.11,-98.87,28.4,63,1,14.99,clear sky,0.0,0.0
250,Gwadar,PK,2020-02-20 22:00:37,25.12,62.33,73.33,63,100,7.18,overcast clouds,0.0,0.0
251,Solnechnyy,RU,2020-02-20 22:00:37,50.72,136.63,-2.9,89,35,2.42,scattered clouds,0.0,0.0
252,Dunedin,NZ,2020-02-20 22:05:04,-45.87,170.5,60.01,89,100,3.0,overcast clouds,0.0,0.0
253,Jining,CN,2020-02-20 22:05:04,35.41,116.58,50.0,33,100,6.42,light rain,0.38,0.0
254,Alamosa,US,2020-02-20 22:05:05,37.47,-105.87,41.0,37,1,5.82,clear sky,0.0,0.0
255,Caceres,ES,2020-02-20 22:05:05,39.52,-6.37,48.99,78,0,4.88,clear sky,0.0,0.0
256,Mitsamiouli,KM,2020-02-20 22:05:05,-11.38,43.28,84.97,71,100,6.8,overcast clouds,0.0,0.0
257,Iwanai,JP,2020-02-20 22:05:05,42.97,140.51,24.15,70,98,10.76,overcast clouds,0.0,0.0
258,Camacha,PT,2020-02-20 22:05:05,33.08,-16.33,57.2,82,40,10.29,scattered clouds,0.0,0.0
259,Asyut,EG,2020-02-20 22:05:05,27.18,31.18,53.6,58,0,2.24,clear sky,0.0,0.0
260,Sargatskoye,RU,2020-02-20 22:05:06,55.61,73.5,21.27,95,100,9.53,overcast clouds,0.0,0.0
261,Gimli,CA,2020-02-20 22:05:06,50.63,-96.99,14.0,76,0,8.99,clear sky,0.0,0.0
262,Mesyagutovo,RU,2020-02-20 22:05:06,55.53,58.25,22.93,94,88,5.01,overcast clouds,0.0,0.0
263,Yasnyy,RU,2020-02-20 22:05:07,51.03,59.87,14.86,91,81,3.33,broken clouds,0.0,0.0
264,Vila Franca Do Campo,PT,2020-02-20 21:58:13,37.72,-25.43,53.6,66,40,8.05,scattered clouds,0.0,0.0
265,Port-Cartier,CA,2020-02-20 22:05:07,50.03,-66.87,-2.0,40,40,13.87,scattered clouds,0.0,0.0
266,Tirumala,IN,2020-02-20 22:05:07,13.68,79.35,63.68,87,0,1.63,clear sky,0.0,0.0
267,Banda Aceh,ID,2020-02-20 22:01:46,5.56,95.32,72.21,84,15,5.46,few clouds,0.0,0.0
268,Kamenka,RU,2020-02-20 22:05:08,51.32,42.77,34.0,93,100,1.01,overcast clouds,0.0,0.0
269,Shingu,JP,2020-02-20 22:05:08,33.73,135.98,46.11,64,0,6.78,clear sky,0.0,0.0
270,Dosso,NE,2020-02-20 22:05:08,13.05,3.19,78.13,13,0,10.13,clear sky,0.0,0.0
271,Buctzotz,MX,2020-02-20 22:05:08,21.2,-88.78,95.14,31,1,7.78,clear sky,0.0,0.0
272,Tambacounda,SN,2020-02-20 22:05:08,13.75,-13.76,93.2,12,28,9.17,scattered clouds,0.0,0.0
273,Terenos,BR,2020-02-20 22:05:09,-20.44,-54.86,73.4,100,75,1.12,thunderstorm with light rain,0.0,0.0
274,Maldonado,UY,2020-02-20 22:01:27,-34.67,-54.92,68.0,42,75,17.22,broken clouds,0.0,0.0
275,Manggar,ID,2020-02-20 22:02:05,-2.88,108.27,82.02,80,28,16.93,light rain,0.5,0.0
276,Balikpapan,ID,2020-02-20 22:05:09,-1.27,116.83,77.0,94,20,5.82,few clouds,0.0,0.0
277,Cabo San Lucas,MX,2020-02-20 22:05:10,22.89,-109.91,84.99,44,5,10.29,clear sky,0.0,0.0
278,Samana,DO,2020-02-20 22:05:10,19.21,-69.34,82.4,78,40,6.93,scattered clouds,0.0,0.0
279,Cuamba,MZ,2020-02-20 22:05:10,-14.8,36.54,70.02,98,36,4.5,scattered clouds,0.0,0.0
280,Provideniya,RU,2020-02-20 22:05:10,64.38,-173.3,-5.8,70,0,4.47,clear sky,0.0,0.0
281,Ngunguru,NZ,2020-02-20 22:05:10,-35.62,174.5,78.01,65,68,5.99,broken clouds,0.0,0.0
282,Udachnyy,RU,2020-02-20 22:05:11,66.42,112.4,-0.4,84,25,6.71,scattered clouds,0.0,0.0
283,Teacapan,MX,2020-02-20 22:05:11,22.55,-105.75,94.05,32,0,8.32,clear sky,0.0,0.0
284,Ryotsu,JP,2020-02-20 22:05:11,38.08,138.43,32.0,100,0,1.12,clear sky,0.0,0.0
285,Krasnyy Profintern,RU,2020-02-20 22:05:11,57.74,40.44,35.6,93,90,6.71,overcast clouds,0.0,0.0
286,Honiara,SB,2020-02-20 22:05:11,-9.43,159.95,78.8,94,75,2.24,broken clouds,0.0,0.0
287,Billings,US,2020-02-20 22:05:12,45.78,-108.5,37.0,37,1,20.8,light rain,0.0,0.0
288,Dongzhen,CN,2020-02-20 22:05:12,22.38,110.94,60.64,88,7,2.01,clear sky,0.0,0.0
289,Zelenoborskiy,RU,2020-02-20 22:05:12,66.84,32.36,7.32,87,41,6.58,scattered clouds,0.0,0.0
290,Edson,CA,2020-02-20 22:00:34,53.58,-116.44,42.8,28,20,9.17,few clouds,0.0,0.0
291,Capao Da Canoa,BR,2020-02-20 22:00:16,-29.75,-50.01,74.39,79,0,25.32,clear sky,0.0,0.0
292,Yanam,IN,2020-02-20 22:05:13,16.73,82.22,68.77,86,0,2.8,clear sky,0.0,0.0
293,Creel,MX,2020-02-20 22:05:13,27.75,-107.63,68.74,34,0,9.69,clear sky,0.0,0.0
294,Traverse City,US,2020-02-20 22:01:24,44.76,-85.62,19.4,67,75,6.93,broken clouds,0.0,0.0
295,Vila,PT,2020-02-20 22:01:21,42.03,-8.16,55.0,87,6,9.17,clear sky,0.0,0.0
296,Leningradskiy,RU,2020-02-20 22:01:20,69.38,178.42,-6.9,92,100,21.59,light snow,0.0,0.13
297,Kibre Mengist,ET,2020-02-20 22:05:14,5.88,38.98,61.61,70,32,2.64,scattered clouds,0.0,0.0
298,Paracuru,BR,2020-02-20 22:00:24,-3.41,-39.03,82.4,74,100,9.17,light rain,1.19,0.0
299,Kyzyl-Suu,KG,2020-02-20 22:05:14,42.34,78.0,24.33,61,37,8.1,scattered clouds,0.0,0.0
300,Vila Velha,BR,2020-02-20 22:04:29,-20.33,-40.29,84.0,78,35,14.99,light rain,0.63,0.0
301,Emerald,AU,2020-02-20 22:02:42,-23.53,148.17,79.0,83,75,5.82,broken clouds,0.0,0.0
302,Vao,NC,2020-02-20 22:05:15,-22.67,167.48,79.38,71,0,6.87,clear sky,0.0,0.0
303,Lompoc,US,2020-02-20 22:05:15,34.64,-120.46,75.99,28,1,6.93,clear sky,0.0,0.0
304,Sola,VU,2020-02-20 22:05:15,-13.88,167.55,86.0,74,75,4.7,broken clouds,0.0,0.0
305,French Harbor,HN,2020-02-20 22:05:15,16.35,-86.43,84.2,70,20,13.87,few clouds,0.0,0.0
306,Ercis,TR,2020-02-20 22:05:16,39.03,43.36,33.8,93,75,3.36,mist,0.0,0.0
307,Ewa Beach,US,2020-02-20 22:05:16,21.32,-158.01,80.6,51,40,10.29,scattered clouds,0.0,0.0
308,Mbanza-Ngungu,CD,2020-02-20 22:05:16,-5.25,14.87,72.72,88,14,1.68,light rain,1.44,0.0
309,Trat,TH,2020-02-20 22:05:16,12.5,102.5,70.39,56,0,5.06,clear sky,0.0,0.0
310,Adre,TD,2020-02-20 22:05:16,13.47,22.2,72.59,21,1,15.64,clear sky,0.0,0.0
311,Hovd,MN,2020-02-20 22:05:17,48.01,91.64,2.48,78,34,1.79,scattered clouds,0.0,0.0
312,Ambilobe,MG,2020-02-20 22:05:17,-13.2,49.05,75.25,95,100,11.18,moderate rain,5.75,0.0
313,Dhankuta,NP,2020-02-20 22:05:17,26.98,87.33,50.38,84,0,5.01,clear sky,0.0,0.0
314,Amapa,BR,2020-02-20 22:05:17,1.0,-52.0,74.61,93,100,2.68,light rain,0.38,0.0
315,Waddan,LY,2020-02-20 22:05:18,29.16,16.14,55.42,56,0,4.45,clear sky,0.0,0.0
316,Havre-Saint-Pierre,CA,2020-02-20 22:05:18,50.23,-63.6,-0.4,49,1,19.46,clear sky,0.0,0.0
317,Wlodawa,PL,2020-02-20 22:05:18,51.55,23.55,30.2,100,8,2.24,clear sky,0.0,0.0
318,Lorengau,PG,2020-02-20 22:05:18,-2.02,147.27,82.9,76,100,12.26,light rain,2.75,0.0
319,Madimba,TZ,2020-02-20 22:05:18,-10.4,40.33,77.0,94,20,5.41,few clouds,0.0,0.0
320,Yunyang,CN,2020-02-20 22:05:19,33.45,112.71,46.96,72,100,2.57,overcast clouds,0.0,0.0
321,Aklavik,CA,2020-02-20 21:58:11,68.22,-135.01,1.4,77,40,2.24,scattered clouds,0.0,0.0
322,Sandy Bay,AU,2020-02-20 22:05:19,-42.91,147.35,55.0,50,75,12.75,light intensity shower rain,0.0,0.0
323,Puri,IN,2020-02-20 22:05:19,19.8,85.85,68.0,94,0,2.86,mist,0.0,0.0
324,Kalat,PK,2020-02-20 22:05:19,29.02,66.59,43.2,33,100,3.58,overcast clouds,0.0,0.0
325,Cherskiy,RU,2020-02-20 22:05:20,68.75,161.3,-16.73,97,100,7.09,overcast clouds,0.0,0.0
326,Mulege,MX,2020-02-20 22:05:20,26.88,-111.98,72.0,40,3,11.56,clear sky,0.0,0.0
327,Veraval,IN,2020-02-20 22:05:20,20.9,70.37,63.55,86,0,4.65,clear sky,0.0,0.0
328,Wainwright,CA,2020-02-20 22:05:20,52.84,-110.86,25.3,80,0,8.19,clear sky,0.0,0.0
329,Linfen,CN,2020-02-20 22:05:20,36.09,111.52,37.27,66,0,4.09,clear sky,0.0,0.0
330,Hanmer Springs,NZ,2020-02-20 22:05:21,-42.52,172.82,66.78,48,100,6.53,overcast clouds,0.0,0.0
331,Imbituba,BR,2020-02-20 22:05:21,-28.24,-48.67,80.6,88,75,11.41,broken clouds,0.0,0.0
332,Mana,GF,2020-02-20 22:05:21,5.66,-53.78,79.11,66,67,5.28,broken clouds,0.0,0.0
333,Kamnik,SI,2020-02-20 22:05:21,46.23,14.61,37.0,86,26,1.12,scattered clouds,0.0,0.0
334,Port Hardy,CA,2020-02-20 22:05:21,50.7,-127.42,46.4,61,40,12.75,scattered clouds,0.0,0.0
335,Mount Gambier,AU,2020-02-20 22:05:22,-37.83,140.77,55.4,87,40,4.7,scattered clouds,0.0,0.0
336,Oksbol,DK,2020-02-20 22:05:22,55.63,8.29,41.0,86,100,16.11,light intensity drizzle,0.0,0.0
337,Petrozavodsk,RU,2020-02-20 22:05:22,61.78,34.35,26.6,92,0,2.24,clear sky,0.0,0.0
338,Monrovia,LR,2020-02-20 22:05:22,6.3,-10.8,80.6,94,40,3.36,mist,0.0,0.0
339,Luanda,AO,2020-02-20 22:05:14,-8.84,13.23,82.4,83,40,10.29,scattered clouds,0.0,0.0
340,Novovasylivka,UA,2020-02-20 22:05:22,46.83,35.75,36.34,89,100,10.98,overcast clouds,0.0,0.0
341,Narsaq,GL,2020-02-20 22:05:23,60.92,-46.05,30.2,28,100,17.22,overcast clouds,0.0,0.0
342,Krivodol,BG,2020-02-20 22:01:52,43.37,23.48,40.55,78,100,7.4,overcast clouds,0.0,0.0
343,Jiwani,PK,2020-02-20 22:05:23,25.05,61.74,73.06,66,100,5.28,overcast clouds,0.0,0.0
344,Pangkalanbuun,ID,2020-02-20 22:05:23,-2.68,111.62,75.58,96,100,0.25,light rain,2.75,0.0
345,Bogale,MM,2020-02-20 22:05:23,16.28,95.4,70.09,45,100,6.51,overcast clouds,0.0,0.0
346,Thalgau,AT,2020-02-20 22:05:24,47.83,13.25,39.99,80,0,10.29,clear sky,0.0,0.0
347,Road Town,VG,2020-02-20 22:05:24,18.42,-64.62,82.4,65,40,11.41,scattered clouds,0.0,0.0
348,Portland,US,2020-02-20 22:05:24,45.52,-122.68,57.99,34,20,13.87,few clouds,0.0,0.0
349,Ostrovnoy,RU,2020-02-20 22:05:25,68.05,39.51,11.73,79,94,19.82,overcast clouds,0.0,0.0
350,Lena,ES,2020-02-20 22:05:25,43.1,-5.73,55.0,93,75,1.12,light intensity drizzle,0.0,0.0
351,Koumac,NC,2020-02-20 22:05:25,-20.57,164.28,77.25,78,0,3.09,light rain,0.13,0.0
352,Elmira,US,2020-02-20 22:02:28,42.09,-76.81,25.0,79,90,11.41,light snow,0.0,0.0
353,Khorixas,NA,2020-02-20 22:05:25,-20.37,14.97,72.5,53,97,8.12,overcast clouds,0.0,0.0
354,Port Hedland,AU,2020-02-20 22:05:26,-20.32,118.57,80.6,74,90,12.75,overcast clouds,0.0,0.0
355,Belaya Gora,RU,2020-02-20 22:05:26,68.53,146.42,-14.51,89,79,5.55,broken clouds,0.0,0.0
356,Iqaluit,CA,2020-02-20 21:58:10,63.75,-68.51,-31.0,59,20,17.22,few clouds,0.0,0.0
357,Vestmanna,FO,2020-02-20 22:03:56,62.16,-7.17,41.0,75,100,31.09,light snow,0.0,0.69
358,Grand Gaube,MU,2020-02-20 22:05:26,-20.01,57.66,78.8,69,40,10.29,scattered clouds,0.0,0.0
359,Sechura,PE,2020-02-20 22:05:27,-5.56,-80.82,73.33,88,0,17.29,clear sky,0.0,0.0
360,Berlevag,NO,2020-02-20 22:05:27,70.86,29.09,28.2,78,96,38.39,overcast clouds,0.0,0.0
361,Hagondange,FR,2020-02-20 22:05:27,49.25,6.17,45.0,81,100,24.16,light rain,1.38,0.0
362,Litovko,RU,2020-02-20 22:05:27,49.24,135.17,-5.82,96,0,2.71,clear sky,0.0,0.0
363,Calama,CL,2020-02-20 22:05:28,-22.47,-68.93,75.2,29,75,23.04,broken clouds,0.0,0.0
364,San Lorenzo,PY,2020-02-20 22:05:28,-25.33,-57.53,91.4,41,0,11.41,clear sky,0.0,0.0
365,Perdoes,BR,2020-02-20 22:00:55,-21.09,-45.09,74.37,87,48,1.72,light rain,2.75,0.0
366,Milkovo,RU,2020-02-20 22:05:28,54.72,158.62,-7.92,93,81,0.83,broken clouds,0.0,0.0
367,Bijie,CN,2020-02-20 22:05:28,27.31,105.29,37.49,87,100,4.05,overcast clouds,0.0,0.0
368,Srednekolymsk,RU,2020-02-20 22:05:29,67.45,153.68,-16.44,93,100,5.03,overcast clouds,0.0,0.0
369,Salalah,OM,2020-02-20 22:05:29,17.02,54.09,77.0,69,75,5.82,broken clouds,0.0,0.0
370,Itarema,BR,2020-02-20 22:04:05,-2.92,-39.92,77.5,90,100,4.23,light rain,0.63,0.0
371,Carballo,ES,2020-02-20 22:05:30,43.21,-8.69,53.01,87,75,2.24,broken clouds,0.0,0.0
372,Kalispell,US,2020-02-20 22:01:29,48.2,-114.31,35.01,47,1,3.36,clear sky,0.0,0.0
373,Korla,CN,2020-02-20 22:04:10,41.76,86.15,26.01,88,0,6.42,clear sky,0.0,0.0
374,Maragogi,BR,2020-02-20 22:05:30,-9.01,-35.22,80.33,85,100,21.85,moderate rain,3.94,0.0
375,Teya,RU,2020-02-20 22:05:30,60.38,92.63,12.97,95,16,4.9,few clouds,0.0,0.0
376,Namatanai,PG,2020-02-20 22:05:31,-3.67,152.43,82.36,77,45,14.7,scattered clouds,0.0,0.0
377,Taoudenni,ML,2020-02-20 22:05:31,22.68,-3.98,76.62,11,0,12.06,clear sky,0.0,0.0
378,Sao Joao Da Barra,BR,2020-02-20 22:01:10,-21.64,-41.05,84.2,70,0,16.11,clear sky,0.0,0.0
379,San Cristobal,VE,2020-02-20 22:04:05,7.77,-72.22,87.8,58,40,10.29,scattered clouds,0.0,0.0
380,Blackfoot,US,2020-02-20 22:05:31,43.19,-112.34,32.0,49,1,5.82,clear sky,0.0,0.0
381,Monte Aprazivel,BR,2020-02-20 22:05:31,-20.77,-49.71,82.4,69,40,3.36,scattered clouds,0.0,0.0
382,Porto De Moz,BR,2020-02-20 22:05:32,-1.75,-52.24,78.6,83,98,2.93,light rain,0.38,0.0
383,Mkushi,ZM,2020-02-20 22:05:32,-13.62,29.39,65.35,95,100,3.49,light rain,0.13,0.0
384,Kapoeta,SS,2020-02-20 22:05:32,4.77,33.59,89.58,35,65,3.2,broken clouds,0.0,0.0
385,Shitanjing,CN,2020-02-20 22:05:32,39.23,106.34,28.0,25,85,1.01,overcast clouds,0.0,0.0
386,Bjornevatn,NO,2020-02-20 22:05:33,69.67,29.98,23.0,67,40,41.38,scattered clouds,0.0,0.0
387,Lahaina,US,2020-02-20 22:05:33,20.88,-156.68,78.8,44,20,23.04,few clouds,0.0,0.0
388,Knysna,ZA,2020-02-20 22:05:33,-34.04,23.05,64.4,100,59,1.03,broken clouds,0.0,0.0
389,Kargasok,RU,2020-02-20 22:05:33,59.06,80.86,27.7,96,100,10.42,light snow,0.0,0.44
390,Mombetsu,JP,2020-02-20 22:05:33,44.35,143.35,20.84,78,88,10.6,overcast clouds,0.0,0.0
391,Comodoro Rivadavia,AR,2020-02-20 22:05:34,-45.87,-67.5,64.4,52,0,3.36,clear sky,0.0,0.0
392,Yumen,CN,2020-02-20 22:05:34,40.28,97.2,20.86,53,56,9.26,broken clouds,0.0,0.0
393,Ilulissat,GL,2020-02-20 22:01:08,69.22,-51.1,-0.4,59,20,10.29,few clouds,0.0,0.0
394,Jalu,LY,2020-02-20 22:01:23,29.03,21.55,57.02,65,68,9.37,broken clouds,0.0,0.0
395,Rio Cuarto,AR,2020-02-20 22:03:11,-33.13,-64.35,68.0,45,23,10.29,few clouds,0.0,0.0
396,Chegdomyn,RU,2020-02-20 22:05:35,51.12,133.02,-12.57,100,100,1.28,overcast clouds,0.0,0.0
397,Cidreira,BR,2020-02-20 22:05:35,-30.18,-50.21,74.39,79,0,25.32,clear sky,0.0,0.0
398,Karratha,AU,2020-02-20 22:02:34,-20.74,116.85,82.11,83,15,9.22,light rain,1.81,0.0
399,Mubi,NG,2020-02-20 22:05:35,10.27,13.26,72.41,21,35,6.85,scattered clouds,0.0,0.0
400,Hofn,IS,2020-02-20 22:00:49,64.25,-15.21,41.27,53,0,13.56,clear sky,0.0,0.0
401,Petawawa,CA,2020-02-20 22:03:06,45.9,-77.33,15.01,36,1,3.36,clear sky,0.0,0.0
402,Bandarbeyla,SO,2020-02-20 22:05:36,9.49,50.81,76.91,79,24,11.41,few clouds,0.0,0.0
403,Yegros,PY,2020-02-20 22:05:36,-26.45,-56.4,86.95,34,0,12.5,clear sky,0.0,0.0
404,Pisco,PE,2020-02-20 22:05:36,-13.7,-76.22,73.99,30,40,21.92,scattered clouds,0.0,0.0
405,Raudeberg,NO,2020-02-20 22:05:37,61.99,5.14,39.2,80,75,23.04,light rain,0.0,0.0
406,Majene,ID,2020-02-20 22:05:37,-3.54,118.97,75.74,87,100,4.18,overcast clouds,0.0,0.0
407,Hami,CN,2020-02-20 22:05:37,42.8,93.45,21.42,54,0,1.95,clear sky,0.0,0.0
408,Kampene,CD,2020-02-20 22:05:37,-3.6,26.67,70.9,97,100,1.97,light rain,0.5,0.0
409,Roebourne,AU,2020-02-20 22:05:37,-20.78,117.13,85.01,62,13,6.4,few clouds,0.0,0.0
410,Cody,US,2020-02-20 22:02:29,44.53,-109.06,34.0,53,1,19.46,clear sky,0.0,0.0
411,Takoradi,GH,2020-02-20 22:05:38,4.88,-1.76,79.93,86,100,3.42,overcast clouds,0.0,0.0
412,Onega,RU,2020-02-20 22:05:38,63.91,38.14,18.84,93,23,7.14,few clouds,0.0,0.0
413,Cherbourg,FR,2020-02-20 22:05:38,49.64,-1.61,46.99,77,20,14.99,few clouds,0.0,0.0
414,Luoyang,CN,2020-02-20 22:05:39,34.68,112.45,44.37,60,100,12.08,overcast clouds,0.0,0.0
415,Pacific Grove,US,2020-02-20 22:05:39,36.62,-121.92,72.0,30,1,1.45,clear sky,0.0,0.0
416,Tsagan Aman,RU,2020-02-20 22:05:39,47.56,46.72,36.55,88,100,5.68,overcast clouds,0.0,0.0
417,Uige,AO,2020-02-20 22:05:39,-7.61,15.06,69.84,95,58,3.0,light rain,2.75,0.0
418,Irbit,RU,2020-02-20 22:05:40,57.67,63.07,26.31,94,82,7.72,broken clouds,0.0,0.0
419,Palmer,US,2020-02-20 22:01:12,42.16,-72.33,33.8,36,75,12.75,broken clouds,0.0,0.0
420,Lasa,IT,2020-02-20 22:05:40,46.62,10.7,35.6,72,0,3.36,clear sky,0.0,0.0
421,Uspenka,UA,2020-02-20 22:05:40,48.39,39.16,32.85,98,100,8.23,light snow,0.0,0.25
422,Rawson,AR,2020-02-20 22:05:41,-43.3,-65.1,57.87,66,0,26.24,clear sky,0.0,0.0
423,Baherden,TM,2020-02-20 22:05:41,38.44,57.43,47.91,62,84,7.34,broken clouds,0.0,0.0
424,Nekrasovka,RU,2020-02-20 22:05:41,48.35,135.23,3.2,54,0,4.47,clear sky,0.0,0.0
425,Urucui,BR,2020-02-20 22:05:41,-7.23,-44.56,73.83,90,100,6.73,overcast clouds,0.0,0.0
426,Normandin,CA,2020-02-20 22:05:42,48.83,-72.53,3.2,49,20,10.29,few clouds,0.0,0.0
427,Lingsugur,IN,2020-02-20 22:05:42,16.17,76.52,66.06,64,0,9.48,clear sky,0.0,0.0
428,Panuco,MX,2020-02-20 22:05:42,22.05,-98.17,79.0,88,75,23.04,broken clouds,0.0,0.0
429,Dimbokro,CI,2020-02-20 22:05:42,6.65,-4.7,81.7,74,100,4.88,overcast clouds,0.0,0.0
430,Belle Glade,US,2020-02-20 22:05:14,26.68,-80.67,84.99,62,40,8.05,scattered clouds,0.0,0.0
431,Xuanhua,CN,2020-02-20 22:05:43,40.61,115.04,26.56,32,82,6.62,broken clouds,0.0,0.0
432,Katangli,RU,2020-02-20 22:05:43,51.71,143.23,6.12,95,98,5.08,light snow,0.0,0.13
433,Chicama,PE,2020-02-20 22:05:43,-7.84,-79.15,75.2,83,75,9.17,broken clouds,0.0,0.0
434,Puerto Carreno,CO,2020-02-20 22:03:14,6.19,-67.49,96.8,37,20,11.41,few clouds,0.0,0.0
435,Vostok,RU,2020-02-20 22:05:43,46.49,135.88,1.38,97,100,4.32,overcast clouds,0.0,0.0
436,Bismarck,US,2020-02-20 22:05:44,46.81,-100.78,36.0,74,1,11.41,clear sky,0.0,0.0
437,Zalantun,CN,2020-02-20 22:05:44,48.0,122.72,7.54,96,100,1.83,light snow,0.0,0.69
438,Arlit,NE,2020-02-20 22:05:44,18.74,7.39,70.83,14,0,10.89,clear sky,0.0,0.0
439,Sisimiut,GL,2020-02-20 22:05:44,66.94,-53.67,-7.98,72,64,8.05,broken clouds,0.0,0.0
440,Koslan,RU,2020-02-20 22:05:45,63.46,48.9,11.68,95,54,5.03,broken clouds,0.0,0.0
441,Lata,PT,2020-02-20 22:05:45,40.16,-8.33,54.0,87,0,6.93,clear sky,0.0,0.0
442,Talcahuano,CL,2020-02-20 22:05:45,-36.72,-73.12,69.8,56,0,9.17,clear sky,0.0,0.0
443,Kieta,PG,2020-02-20 22:05:45,-6.22,155.63,81.5,72,44,4.7,scattered clouds,0.0,0.0
444,Tateyama,JP,2020-02-20 22:05:46,34.98,139.87,46.4,65,40,10.29,scattered clouds,0.0,0.0
445,Tirumullaivasal,IN,2020-02-20 22:05:46,11.23,79.83,79.41,72,14,14.0,few clouds,0.0,0.0
446,Wah,PK,2020-02-20 22:05:46,33.8,72.7,52.0,100,40,11.41,mist,0.0,0.0
447,Jasper,US,2020-02-20 22:01:09,37.2,-94.35,37.0,50,1,11.41,clear sky,0.0,0.0
448,Nanortalik,GL,2020-02-20 21:59:42,60.14,-45.24,26.02,71,100,6.02,overcast clouds,0.0,0.0
449,Alice Springs,AU,2020-02-20 22:05:31,-23.7,133.88,68.0,22,17,1.12,few clouds,0.0,0.0
450,Kailua,US,2020-02-20 22:03:47,21.4,-157.74,80.6,73,75,19.46,broken clouds,0.0,0.0
451,Otane,NZ,2020-02-20 22:05:47,-39.88,176.63,75.0,54,89,5.01,overcast clouds,0.0,0.0
452,Toora-Khem,RU,2020-02-20 22:05:47,52.47,96.11,-0.44,91,95,3.27,overcast clouds,0.0,0.0
453,Quelimane,MZ,2020-02-20 22:02:30,-17.88,36.89,79.52,82,98,6.31,overcast clouds,0.0,0.0
454,Dubbo,AU,2020-02-20 22:05:48,-32.25,148.62,66.2,77,85,11.41,overcast clouds,0.0,0.0
455,Mehamn,NO,2020-02-20 22:05:48,71.04,27.85,24.8,73,89,27.51,overcast clouds,0.0,0.0
456,Clyde River,CA,2020-02-20 22:05:48,70.47,-68.59,-14.8,83,40,13.87,scattered clouds,0.0,0.0
457,Tilichiki,RU,2020-02-20 22:05:48,60.47,166.1,-18.85,86,100,7.02,overcast clouds,0.0,0.0
458,Lebu,CL,2020-02-20 22:05:48,-37.62,-73.65,74.46,35,0,8.14,clear sky,0.0,0.0
459,Lodja,CD,2020-02-20 22:05:49,-3.48,23.43,74.08,77,49,1.83,scattered clouds,0.0,0.0
460,Hambantota,LK,2020-02-20 22:05:49,6.12,81.12,77.0,100,20,10.29,few clouds,0.0,0.0
461,Correntina,BR,2020-02-20 22:05:49,-13.34,-44.64,76.14,84,0,2.84,light rain,0.44,0.0
462,Asau,RO,2020-02-20 22:05:49,46.43,26.4,32.0,86,20,4.7,few clouds,0.0,0.0
463,Douglas,US,2020-02-20 22:04:35,41.3,-96.17,30.99,42,1,4.7,clear sky,0.0,0.0
464,Sekoma,BW,2020-02-20 22:05:50,-24.4,23.88,74.57,66,99,4.61,light rain,0.25,0.0
465,Sainthia,IN,2020-02-20 22:05:50,23.95,87.67,66.04,61,67,2.64,broken clouds,0.0,0.0
466,Newport,GB,2020-02-20 22:05:50,51.59,-3.0,43.0,80,20,14.99,few clouds,0.0,0.0
467,Paraipaba,BR,2020-02-20 22:05:50,-3.44,-39.15,75.99,3,100,14.0,light rain,1.19,0.0
468,Romny,UA,2020-02-20 22:05:51,50.75,33.47,32.72,89,100,4.9,overcast clouds,0.0,0.0
469,Bloemfontein,ZA,2020-02-20 22:05:51,-29.12,26.21,68.0,82,0,1.12,clear sky,0.0,0.0
470,Zyryanskoye,RU,2020-02-20 22:05:51,56.83,86.63,23.7,94,100,11.1,light snow,0.0,0.88
471,Celestun,MX,2020-02-20 22:05:51,20.87,-90.4,77.32,83,0,17.02,clear sky,0.0,0.0
472,Pilar,BR,2020-02-20 22:05:51,-9.6,-35.96,75.2,94,75,9.17,light rain,0.0,0.0
473,Svetlogorsk,BY,2020-02-20 22:05:52,52.63,29.73,38.25,89,86,2.86,overcast clouds,0.0,0.0
474,Carutapera,BR,2020-02-20 22:05:52,-1.2,-46.02,79.09,82,100,6.31,light rain,0.5,0.0
475,Hauzenberg,DE,2020-02-20 22:05:52,48.65,13.63,36.0,90,0,2.24,clear sky,0.0,0.0
476,Bartoszyce,PL,2020-02-20 22:05:52,54.25,20.81,35.98,78,50,12.84,scattered clouds,0.0,0.0
477,Eyl,SO,2020-02-20 22:05:52,7.98,49.82,77.77,83,21,17.47,few clouds,0.0,0.0
478,Pangai,TO,2020-02-20 22:05:53,-19.8,-174.35,80.6,74,20,9.17,few clouds,0.0,0.0
479,Parainen,FI,2020-02-20 22:05:53,60.3,22.3,39.0,85,90,16.11,overcast clouds,0.0,0.0
480,Kampot,KH,2020-02-20 22:05:53,10.62,104.18,80.6,65,20,8.05,few clouds,0.0,0.0
481,Padang,ID,2020-02-20 22:03:43,-0.95,100.35,69.78,84,80,6.24,broken clouds,0.0,0.0
482,Soyo,AO,2020-02-20 22:05:53,-6.13,12.37,80.92,80,56,7.43,broken clouds,0.0,0.0
483,San Quintin,MX,2020-02-20 22:05:54,30.48,-115.95,67.1,60,96,8.79,overcast clouds,0.0,0.0
484,Bayir,TR,2020-02-20 22:05:54,37.27,28.22,50.0,93,75,5.82,thunderstorm,0.0,0.0
485,Tynset,NO,2020-02-20 22:05:54,62.28,10.78,32.0,98,90,2.24,light snow,0.0,0.0
486,Colac,AU,2020-02-20 22:05:54,-38.33,143.58,57.0,99,29,1.99,scattered clouds,0.0,0.0
487,Imperatriz,BR,2020-02-20 22:05:54,-5.53,-47.49,73.92,98,100,2.68,light rain,3.0,0.0
488,Uaua,BR,2020-02-20 22:02:22,-9.84,-39.48,80.76,53,82,5.75,broken clouds,0.0,0.0
489,Sao Filipe,CV,2020-02-20 22:05:55,14.9,-24.5,70.88,71,16,21.59,few clouds,0.0,0.0
490,Lovozero,RU,2020-02-20 22:05:55,68.0,35.01,6.46,83,100,11.03,overcast clouds,0.0,0.0
491,Urcos,PE,2020-02-20 22:05:55,-13.69,-71.62,60.8,44,75,8.05,shower rain,0.0,0.0
492,Tazovskiy,RU,2020-02-20 22:05:55,67.47,78.7,11.59,90,97,6.51,overcast clouds,0.0,0.0
493,Anshun,CN,2020-02-20 22:05:56,26.25,105.93,43.41,82,100,9.71,light rain,0.13,0.0
494,Omsk,RU,2020-02-20 22:05:56,55.0,73.4,24.8,85,75,8.95,light shower snow,0.0,0.0
495,Merauke,ID,2020-02-20 22:05:56,-8.47,140.33,74.8,97,100,7.09,overcast clouds,0.0,0.0
496,Manaure,CO,2020-02-20 22:05:56,11.78,-72.44,84.2,70,20,23.04,few clouds,0.0,0.0
497,Villa Constitucion,AR,2020-02-20 22:02:54,-33.23,-60.33,75.2,29,0,14.99,clear sky,0.0,0.0
498,Hearst,CA,2020-02-20 22:05:11,49.68,-83.67,17.74,69,100,16.6,overcast clouds,0.0,0.0
499,Galveston,US,2020-02-20 22:05:57,29.37,-94.97,50.0,87,90,11.41,overcast clouds,0.0,0.0
500,Xochistlahuaca,MX,2020-02-20 22:05:57,16.78,-98.25,92.03,19,0,7.34,clear sky,0.0,0.0
501,Roma,US,2020-02-20 22:04:29,43.21,-75.46,21.99,53,90,19.46,overcast clouds,0.0,0.0
502,Lulea,SE,2020-02-20 22:05:58,65.58,22.15,30.2,92,90,20.8,light snow,0.0,0.0
503,Atambua,ID,2020-02-20 22:05:58,-9.11,124.89,74.48,87,28,3.02,scattered clouds,0.0,0.0
504,Port Lincoln,AU,2020-02-20 22:05:58,-34.73,135.87,61.16,67,98,11.77,overcast clouds,0.0,0.0
505,Nisia Floresta,BR,2020-02-20 22:05:58,-6.09,-35.21,77.0,94,40,4.7,scattered clouds,0.0,0.0
506,Disna,BY,2020-02-20 22:05:59,55.57,28.2,34.21,88,34,7.18,scattered clouds,0.0,0.0
507,Kommunar,RU,2020-02-20 22:05:59,59.62,30.39,33.01,94,75,4.47,broken clouds,0.0,0.0
508,Nichinan,JP,2020-02-20 22:05:59,31.6,131.37,41.0,86,20,9.17,few clouds,0.0,0.0
509,Muroto,JP,2020-02-20 22:05:59,33.28,134.15,37.4,74,20,10.29,few clouds,0.0,0.0
510,Montes Claros,BR,2020-02-20 22:06:00,-16.73,-43.86,82.4,51,20,6.93,few clouds,0.0,0.0
511,Chilca,PE,2020-02-20 22:06:00,-12.52,-76.74,80.6,69,92,11.41,overcast clouds,0.0,0.0
512,Conceicao Do Araguaia,BR,2020-02-20 22:06:00,-8.26,-49.26,71.6,100,100,6.93,light rain,0.0,0.0
513,Kununurra,AU,2020-02-20 22:06:00,-15.77,128.73,78.8,83,100,5.82,overcast clouds,0.0,0.0
514,Santa Fe,AR,2020-02-20 22:04:01,-31.63,-60.7,78.01,24,0,4.0,clear sky,0.0,0.0
515,Vytegra,RU,2020-02-20 22:06:01,61.01,36.45,22.64,93,46,2.64,scattered clouds,0.0,0.0
516,Samoylovka,RU,2020-02-20 22:06:01,51.18,43.71,34.0,93,100,1.01,overcast clouds,0.0,0.0
517,Cabanas,CU,2020-02-20 22:06:01,22.98,-82.92,87.8,52,40,8.05,scattered clouds,0.0,0.0
518,Avera,US,2020-02-20 22:06:01,33.19,-82.53,42.8,100,90,9.17,moderate rain,0.0,0.0
519,Severo-Yeniseyskiy,RU,2020-02-20 22:06:01,60.37,93.04,14.47,95,47,6.13,scattered clouds,0.0,0.0
520,Yagodnoye,RU,2020-02-20 22:06:02,62.55,149.67,-25.01,91,0,3.62,clear sky,0.0,0.0
521,Matara,LK,2020-02-20 22:06:02,5.95,80.54,78.6,78,0,10.04,clear sky,0.0,0.0
522,Basco,PH,2020-02-20 22:06:02,20.45,121.97,72.64,73,3,25.14,clear sky,0.0,0.0
523,Batsfjord,NO,2020-02-20 22:06:02,70.63,29.72,23.0,67,75,21.92,broken clouds,0.0,0.0
524,Matagami,CA,2020-02-20 22:06:02,49.75,-77.63,8.6,55,75,12.75,broken clouds,0.0,0.0
525,Amarante Do Maranhao,BR,2020-02-20 22:06:03,-5.57,-46.74,71.56,99,100,4.54,heavy intensity rain,14.94,0.0
526,Faenza,IT,2020-02-20 22:06:03,44.29,11.88,48.2,60,0,8.05,clear sky,0.0,0.0
527,Armeria,MX,2020-02-20 22:06:03,18.93,-103.97,84.2,54,40,13.87,smoke,0.0,0.0
528,Labuhan,ID,2020-02-20 22:06:03,-6.88,112.21,73.18,95,29,3.29,scattered clouds,0.0,0.0
529,Zhigansk,RU,2020-02-20 22:05:39,66.77,123.37,-7.02,94,100,22.39,light snow,0.0,0.31
530,Egvekinot,RU,2020-02-20 22:06:04,66.32,-179.17,-18.31,83,0,2.89,clear sky,0.0,0.0
531,Krathum Baen,TH,2020-02-20 22:06:04,13.65,100.26,84.0,57,0,5.82,clear sky,0.0,0.0
532,Nowy Dwor Mazowiecki,PL,2020-02-20 22:06:04,52.43,20.72,37.99,78,5,8.05,clear sky,0.0,0.0
533,Krasnoselkup,RU,2020-02-20 22:06:04,65.7,82.47,22.48,96,97,4.14,light snow,0.0,0.44
534,La Ronge,CA,2020-02-20 22:06:05,55.1,-105.28,41.0,32,40,11.41,scattered clouds,0.0,0.0
535,Sijunjung,ID,2020-02-20 22:06:05,-0.69,100.95,70.5,96,100,2.1,light rain,1.5,0.0
536,Kathmandu,NP,2020-02-20 22:06:05,27.72,85.32,51.8,93,40,2.24,mist,0.0,0.0
537,Saint-Francois,FR,2020-02-20 22:06:05,46.42,3.91,48.2,70,90,4.7,overcast clouds,0.0,0.0
538,Boa Vista,BR,2020-02-20 22:06:05,2.82,-60.67,89.6,35,100,12.75,overcast clouds,0.0,0.0
539,Beyneu,KZ,2020-02-20 22:06:06,45.32,55.2,36.37,58,100,7.74,overcast clouds,0.0,0.0
540,Petropavl,KZ,2020-02-20 22:06:06,54.88,69.16,23.07,94,100,9.69,overcast clouds,0.0,0.0
541,Padong,PH,2020-02-20 22:06:06,18.05,120.76,62.6,88,20,2.24,few clouds,0.0,0.0
542,Pochutla,MX,2020-02-20 22:06:06,15.74,-96.47,89.6,55,20,11.41,few clouds,0.0,0.0
543,Gudari,IN,2020-02-20 22:06:06,19.35,83.78,63.19,88,0,0.76,clear sky,0.0,0.0
544,Amurzet,RU,2020-02-20 22:06:07,47.7,131.1,2.3,86,38,2.64,scattered clouds,0.0,0.0
545,Gwanda,ZW,2020-02-20 22:06:07,-20.93,29.0,73.02,60,13,5.68,few clouds,0.0,0.0
546,Hayden,US,2020-02-20 22:06:07,47.77,-116.79,44.01,55,1,5.82,light rain,0.0,0.0
547,Ginir,ET,2020-02-20 22:06:07,7.13,40.7,64.54,54,43,5.48,scattered clouds,0.0,0.0
548,Ahuimanu,US,2020-02-20 22:06:07,21.44,-157.84,80.6,73,75,19.46,broken clouds,0.0,0.0
549,Madang,PG,2020-02-20 22:06:08,-5.22,145.8,80.53,80,100,9.53,overcast clouds,0.0,0.0
550,Gomel,BY,2020-02-20 22:06:08,52.43,30.98,37.4,86,71,6.71,broken clouds,0.0,0.0
551,Salinopolis,BR,2020-02-20 22:06:08,-0.61,-47.36,79.75,81,100,9.6,light rain,1.94,0.0
552,Cervo,ES,2020-02-20 22:06:08,43.67,-7.41,52.0,1,100,4.43,light rain,0.38,0.0
553,Caravelas,BR,2020-02-20 22:06:08,-17.71,-39.25,81.34,79,17,14.9,few clouds,0.0,0.0
554,Preobrazheniye,RU,2020-02-20 22:06:09,42.9,133.91,18.43,70,90,4.83,overcast clouds,0.0,0.0
555,Tokmak,UA,2020-02-20 22:06:09,47.25,35.71,34.97,90,100,9.28,overcast clouds,0.0,0.0
556,Diofior,SN,2020-02-20 22:06:09,14.18,-16.67,89.6,78,62,14.99,broken clouds,0.0,0.0
557,Madera,US,2020-02-20 22:06:09,37.17,-119.83,73.0,35,1,4.7,clear sky,0.0,0.0
558,Sorland,NO,2020-02-20 22:06:09,67.67,12.69,33.8,86,75,10.29,snow,0.0,0.0
559,Fukue,JP,2020-02-20 22:06:09,32.69,128.84,50.0,57,0,12.75,clear sky,0.0,0.0
560,Kalmunai,LK,2020-02-20 22:06:10,7.42,81.82,81.03,81,10,18.66,clear sky,0.0,0.0
561,Bernalillo,US,2020-02-20 22:06:10,35.05,-106.67,50.0,45,1,13.87,clear sky,0.0,0.0
562,Kearney,US,2020-02-20 22:06:10,40.7,-99.08,33.8,27,1,8.05,clear sky,0.0,0.0
563,Qandala,SO,2020-02-20 22:06:10,11.47,49.87,73.85,78,80,0.94,broken clouds,0.0,0.0
564,Kapit,MY,2020-02-20 22:06:10,2.02,112.93,71.4,99,78,1.23,broken clouds,0.0,0.0
565,Krasnoarmeysk,RU,2020-02-20 22:06:11,51.02,45.7,27.12,92,100,5.1,overcast clouds,0.0,0.0
566,Dongsheng,CN,2020-02-20 22:06:11,39.82,109.98,22.28,43,75,15.57,broken clouds,0.0,0.0
567,Fairbanks,US,2020-02-20 22:06:11,64.84,-147.72,32.0,73,90,9.17,overcast clouds,0.0,0.0
568,Cabedelo,BR,2020-02-20 22:06:11,-6.98,-34.83,77.0,94,90,5.82,overcast clouds,0.0,0.0
569,Starobaltachevo,RU,2020-02-20 22:06:11,56.0,55.92,29.44,96,100,8.14,light snow,0.0,0.13
570,Nioro,GM,2020-02-20 22:06:12,13.35,-15.75,88.03,8,58,6.89,broken clouds,0.0,0.0
571,Valleyview,CA,2020-02-20 22:06:12,55.07,-117.29,35.49,82,33,9.86,scattered clouds,0.0,0.0
572,Iracoubo,GF,2020-02-20 22:06:12,5.48,-53.2,78.31,73,100,11.52,overcast clouds,0.0,0.0
